[
   
    {"name": "Radisson Blu Atria Bengaluru", "address": "1 Palace Road, Bengaluru 560001", "latitude": 12.980235, "longitude": 77.586061},{"name": "Lemon Tree Hotel, Whitefield, Bengaluru", "address": "23 EPIP Zone, Whitefield, Bengaluru 560066", "latitude": 12.976358, "longitude": 77.727016},
    {"name": "Clarks Exotica Convention Resort & Spa", "address": "Swiss Town, Hollywood Junction, Devanahalli Road, Bengaluru 562110", "latitude": 113.2549215, "longitude": 77.6752551},
    {"name": "Ramada Encore by Wyndham Bangalore Domlur", "address": "282-285 Amarjyothi Layout, Domlur, Bengaluru 560071", "latitude": 12.959655, "longitude": 77.64074},
    {"name": "Holiday Inn Express & Suites Bengaluru OMR", "address": "Survey No 35/1A, 35/1B, Outer Ring Road, Bengaluru 560037", "latitude": 12.9627085, "longitude": 77.7006102},
    {"name": "Lemon Tree Premier, Ulsoor Lake, Bengaluru", "address": "2/1, St. Johns Road, Bengaluru 560042", "latitude": 12.988094, "longitude": 77.61737},
    {"name": "Lemon Tree Hotel, Electronics City, Bengaluru", "address": "54B/55A, Hosur Main Road, Electronics City, Phase 1, Bengaluru 560100", "latitude": 12.840783, "longitude": 77.65966},
    {"name": "Davanam Sarovar Portico Suites", "address": "Davanam Plaza, Hosur Main Road, Kormangala, Bengaluru 560068", "latitude": 12.920983, "longitude": 77.620413},
    {"name": "The Pride Hotel", "address": "93 Richmond Road, Bengaluru 560025", "latitude": 12.965505587295707, "longitude": 77.60181709775114},
    {"name": "Royal Orchid Central", "address": "47 Dickenson Road, Manipal Centre, Bengaluru 560042", "latitude": 12.9822365, "longitude": 77.6130773},
    {"name": "Country Inn & Suites by Radisson, Bengaluru Hebbal Road", "address": "Plot No. 514, Outer Ring Road, Hebbal, Bengaluru 560045", "latitude": 13.0419462, "longitude": 77.6130838},
    {"name": "Radisson Hotel Bengaluru City Center", "address": "2 Gangadhar Chetty Road, Ulsoor, Bengaluru 560042", "latitude": 12.9761849, "longitude": 77.6194489},
    {"name": "Goldfinch Hotel Bangalore", "address": "32/3 Crescent Road, High Grounds, Bengaluru 560001", "latitude": 12.985312, "longitude": 77.579487},
    {"name": "Fortune Park JP Celestial", "address": "5/43 Race Course Road, Bengaluru 560009", "latitude": 12.984094, "longitude": 77.5750359},
    {"name": "Svenska Design Hotel", "address": "56D, Electronic City, Phase 1, Bengaluru 560100", "latitude": 12.839335, "longitude": 77.659304},
    {"name": "Howard Johnson by Wyndham Bengaluru Hebbal", "address": "132, Thanisandra Main Road, Nagawara Junction, Bengaluru 560077", "latitude": 13.044564, "longitude": 77.626472},
    {"name": "The Chancery", "address": "10/6 Lavelle Road, Bengaluru 560001", "latitude": 12.971164, "longitude": 77.597699},
    {"name": "Fortune Select JP Cosmos", "address": "49 Cunningham Crescent Road, Bengaluru 560052", "latitude": 12.98948, "longitude":77.594926},
    {"name": "Attide Hotel", "address": "9/1, Attur Layout, Yelahanka, Bengaluru 560064", "latitude":13.098433, "longitude": 77.569312},
    {"name": "Vivanta Bengaluru, Residency Road", "address": "66 Residency Road, Bengaluru 560025", "latitude": 12.962013, "longitude": 77.6049},
    {"name": "The Leela Palace Bengaluru", "address": "#23 HAL Airport Road, Bengaluru 560008", "latitude": 12.960226, "longitude": 77.648131},
    {"name": "The Ritz-Carlton, Bangalore", "address": "99 Residency Road, Shanti Nagar, Bengaluru 560025", "latitude": 12.9684523, "longitude": 77.6010813},
    {"name": "Taj West End", "address": "Race Course Road, Bengaluru 560001", "latitude": 12.9846741, "longitude": 77.5848913},
    {"name": "JJW Marriott Hotel Bengaluru", "address": "24/1 Vittal Mallya Road, Bengaluru 560001",  "latitude": 12.971064, "longitude": 77.599145 },
    {"name": "The Oberoi, Bengaluru", "address": "37-39 Mahatma Gandhi Road, Bengaluru 560001", "latitude": 12.9728743 , "longitude": 77.6184994},
    {"name": "ITC Windsor, A Luxury Collection Hotel", "address": "25 Windsor Square, Golf Course Road, Bengaluru 560052", "latitude": 12.9940359, "longitude": 77.5859964},
    {"name": "Shangri-La Bengaluru", "address": "No.56-6B, Palace Road, Bengaluru 560052", "latitude": 12.997283, "longitude": 77.586602},
    {"name": "Conrad Bengaluru", "address": "25/3 Kensington Road, Ulsoor, Bengaluru 560008", "latitude": 12.9753067, "longitude": 77.6204842},
    {"name": "Hilton Bangalore Embassy GolfLinks", "address": "Embassy Golf Links Business Park, Bengaluru 560071", "latitude": 12.951316, "longitude": 77.640558},
    {"name": "Four Seasons Hotel Bengaluru at Embassy ONE", "address": "8, Bellary Road, Bengaluru 560052", "latitude": 13.019469, "longitude": 77.5845222},
    {"name": "The Lalit Ashok Bangalore", "address": "Kumara Krupa High Grounds, Bengaluru 560001", "latitude": 13.0292063, "longitude":77.584649},
    {"name": "The Den Bengaluru", "address": "43/1, Thubarahalli Main Road, Whitefield, Bengaluru 560066", "latitude": 12.897852, "longitude": 77.543383},
    {"name": "Taj Yeshwantpur, Bengaluru", "address": "2275, Tumkur Road, Yeshwantpur, Bengaluru 560022", "latitude": 13.0292063, "longitude": 77.5405759},
    {"name": "The Leela Bhartiya City Bengaluru", "address": "6/2, Thanisandra Main Road, Tirumanahalli, Bengaluru 560064", "latitude": 13.084516, "longitude": 77.5955719},
    {"name": "ITC Gardenia, a Luxury Collection Hotel", "address": "No.1, Residency Road, Bengaluru 560025", "latitude": 12.9671674, "longitude": 77.59557195},
    {"name": "Radisson Blu Bengaluru Outer Ring Road", "address": "Marathahalli Outer Ring Road, Bengaluru 560037", "latitude": 12.9502139, "longitude":  77.6989321},
    {"name": "Hyatt Centric MG Road Bangalore", "address": "1/1 Swami Vivekananda Road, Ulsoor, Bengaluru 560008", "latitude": 12.974146, "longitude":77.623694},
    {"name": "The Paul Bangalore", "address": "139/28, Domlur Layout, Off Intermediate Ring Road, Bengaluru 560071", "latitude": 12.9483155, "longitude": 77.6448804},
    {"name": "Sheraton Grand Bangalore Hotel at Brigade Gateway", "address": "26/1 Dr. Rajkumar Road, Malleswaram-Rajajinagar, Bengaluru 560055", "latitude": 13.012534, "longitude": 77.555044},
    {"name": "Gokulam Grand Hotel & Spa", "address": "115 Gokula Extension, HMT Road (Near BEL Circle), Bengaluru 560054", "latitude": 13.04207, "longitude": 77.554723}
]




