[
  { "name": "Begur", "lat": 12.8754, "lng": 77.6298, "area": 137 },
  { "name": "Bellandur", "lat": 12.9347, "lng": 77.6640, "area": 892 },
  { "name": "Chikkabanavara", "lat": 13.0825, "lng": 77.5068, "area": 170 },
  { "name": "Doddabommasandra", "lat": 13.0650, "lng": 77.5619, "area": 124 },
  { "name": "Doddanekundi", "lat": 12.9750, "lng": 77.6875, "area": 130 },
  { "name": "Hebbal", "lat": 13.0469, "lng": 77.5858, "area": 150 },
  { "name": "Hulimavu", "lat": 12.8716, "lng": 77.6036, "area": 127 },
  { "name": "Jakkur", "lat": 13.0867, "lng": 77.6101, "area": 157 },
  { "name": "Kal", "lat": 13.0473, "lng": 77.6642, "area": 187 },
  { "name": "Madiwala", "lat": 12.9069, "lng": 77.6161, "area": 268 },
  { "name": "Maragondanahalli", "lat": 13.0477, "lng": 77.6841, "area": 187 },
  { "name": "Rachenahalli", "lat": 13.0626, "lng": 77.6134, "area": 104 },
  { "name": "Ulsoor", "lat": 12.9825, "lng": 77.6191, "area": 108 },
  { "name": "Varthur", "lat": 12.9487, "lng": 77.7392, "area": 445 },
  { "name": "Yelahanka", "lat": 13.1108, "lng": 77.5952, "area": 288 },
  { "name": "Yele Mallappa Shetty", "lat": 13.0246, "lng": 77.7274, "area": 490 },
  { "name": "Abbigere", "lat": 13.0793, "lng": 77.5278, "area": 47 },
  { "name": "Agara", "lat": 12.9212, "lng": 77.6412, "area": 97 },
  { "name": "Akshayanagara", "lat": 12.8716, "lng": 77.6140, "area": 6 },
  { "name": "Allalasandra", "lat": 13.0910, "lng": 77.5871, "area": 35 },
  { "name": "Amrutahalli", "lat": 13.0617, "lng": 77.5977, "area": 23 },
  { "name": "Anchepalya", "lat": 13.0515, "lng": 77.4793, "area": 56 },
  { "name": "Are", "lat": 12.8831, "lng": 77.5986, "area": 29 },
  { "name": "Attur", "lat": 13.1114, "lng": 77.5629, "area": 81 },
  { "name": "Avalahalli", "lat": 12.8651, "lng": 77.5661, "area": 21 },
  { "name": "Bagmane", "lat": 12.9792, "lng": 77.6554, "area": 11 },
  { "name": "Banaswadi", "lat": 13.0128, "lng": 77.6448, "area": 25 },
  { "name": "Benniganahalli", "lat": 12.9974, "lng": 77.6651, "area": 15 },
  { "name": "Byrasandra", "lat": 12.9302, "lng": 77.5958, "area": 14 },
  { "name": "Chele", "lat": 13.0265, "lng": 77.6446, "area": 25 },
  { "name": "Chinnappanahalli", "lat": 12.9658, "lng": 77.7068, "area": 11 },
  { "name": "Chunchanghatta", "lat": 12.9658, "lng": 77.7068, "area": 18 },
  { "name": "Dasarahalli", "lat": 13.0409, "lng": 77.5118, "area": 27 },
  { "name": "Devara", "lat": 12.8977, "lng": 77.5543, "area": 7 },
  { "name": "Devasandra", "lat": 13.0049, "lng": 77.6935, "area": 16 },
  { "name": "Doddabidarakallu", "lat": 13.0431, "lng": 77.4954, "area": 40 },
  { "name": "Doddakallasandra", "lat": 12.8821, "lng": 77.5615, "area": 21 },
  { "name": "Dore", "lat": 12.9027, "lng": 77.5504, "area": 28 },
  { "name": "Dubasipalya", "lat": 12.9311, "lng": 77.4945, "area": 22 },
  { "name": "Gangondanahalli", "lat": 13.0179, "lng": 77.4747, "area": 20 },
  { "name": "Garvebhavipalya", "lat": 12.8964, "lng": 77.6372, "area": 18 },
  { "name": "Gottigere", "lat": 12.8530, "lng": 77.5901, "area": 37 },
  { "name": "Halagevaderahalli", "lat": 12.9240, "lng": 77.5149, "area": 9 },
  { "name": "Haralur", "lat": 12.8964, "lng": 77.6624, "area": 27 },
  { "name": "Herohalli", "lat": 12.9891, "lng": 77.4896, "area": 25 },
  { "name": "Hoodi", "lat": 12.9868, "lng": 77.7227, "area": 15 },
  { "name": "Hormavu Agara", "lat": 13.0355, "lng": 77.6584, "area": 51 },
  { "name": "Hosa", "lat": 12.8846, "lng": 77.6649, "area": 38 },
  { "name": "Hosakerehalli", "lat": 12.9262, "lng": 77.5337, "area": 59 },
  { "name": "Hoskere", "lat": 12.9259, "lng": 77.4804, "area": 54 },
  { "name": "Iblur", "lat": 12.9224, "lng": 77.6668, "area": 10 },
  { "name": "Janardhana", "lat": 12.8909, "lng": 77.5568, "area": 7 },
  { "name": "Kacharkanahalli", "lat": 13.0183, "lng": 77.6263, "area": 53 },
  { "name": "Kaggadasapura", "lat": 12.9819, "lng": 77.6695, "area": 47 },
  { "name": "Kaikondrahalli", "lat": 12.9133, "lng": 77.6729, "area": 48 },
  { "name": "Kalena Agrahara", "lat": 12.8655, "lng": 77.5896, "area": 7 },
  { "name": "Kannuru", "lat": 13.0999, "lng": 77.6507, "area": 64 },
  { "name": "Kasavanahalli", "lat": 12.9040, "lng": 77.6665, "area": 53 },
  { "name": "Kelagina", "lat": 12.9787, "lng": 77.6618, "area": 12 },
  { "name": "Kempambudhi", "lat": 12.9518, "lng": 77.5593, "area": 36 },
  { "name": "Kengeri", "lat": 12.9163, "lng": 77.4874, "area": 38 },
  { "name": "Kogilu", "lat": 13.1080, "lng": 77.6189, "area": 73 },
  { "name": "Konasandra", "lat": 12.8923, "lng": 77.4834, "area": 37 },
  { "name": "Kothanur", "lat": 12.8739, "lng": 77.5789, "area": 18 },
  { "name": "Kowdenahalli", "lat": 13.0125, "lng": 77.6850, "area": 55 },
  { "name": "K R Puram", "lat": 13.0165, "lng": 77.6984, "area": 45 },
  { "name": "Kundalahalli", "lat": 12.9693, "lng": 77.7203, "area": 30 },
  { "name": "Lalbagh", "lat": 12.9460, "lng": 77.5826, "area": 40 },
  { "name": "Lakkasandra", "lat": 12.9439, "lng": 77.6007, "area": 40 },
  { "name": "Malathalli", "lat": 12.9656, "lng": 77.4946, "area": 72 },
  { "name": "Mathikere", "lat": 13.0354, "lng": 77.5508, "area": 80 },
  { "name": "Mahadevpura", "lat": 12.9873, "lng": 77.6921, "area": 26 },
  { "name": "Mestripalya", "lat": 12.9322, "lng": 77.6259, "area": 9 },
  { "name": "Munnekolala", "lat": 12.9608, "lng": 77.7080, "area": 15 },
  { "name": "Mylasandra", "lat": 12.9082, "lng": 77.4926, "area": 12 },
  { "name": "Nagavara", "lat": 13.0449, "lng": 77.6080, "area": 75 },
  { "name": "Narasappanahalli", "lat": 13.0216, "lng": 77.4950, "area": 37 },
  { "name": "Nayandahalli", "lat": 12.9400, "lng": 77.5213, "area": 15 },
  { "name": "Pattandur Agrahara", "lat": 12.9760, "lng": 77.7452, "area": 12 },
  { "name": "Puttenahalli Lake, Yelahanka", "lat": 13.1113, "lng": 77.5764, "area": 34 },
  { "name": "Puttenahalli Lake, J P Nagar", "lat": 12.8903, "lng": 77.5871, "area": 13 },
  { "name": "Sadaramangala", "lat": 12.9995, "lng": 77.7285, "area": 52 },
  { "name": "Sankey tank", "lat": 13.0096, "lng": 77.5738, "area": 40 },
  { "name": "Sarakki", "lat": 12.8993, "lng": 77.5792, "area": 82 },
  { "name": "Saul", "lat": 12.9179, "lng": 77.6796, "area": 61 },
  { "name": "Seegehalli", "lat": 13.0172, "lng": 77.7128, "area": 31 },
  { "name": "Seetharampalya", "lat": 12.9819, "lng": 77.7129, "area": 23 },
  { "name": "Singapura", "lat": 13.0825, "lng": 77.5351, "area": 66 },
  { "name": "Subramanyapura", "lat": 12.8962, "lng": 77.5427, "area": 18 },
  { "name": "Sunkalpalya", "lat": 12.9064, "lng": 77.4960, "area": 15 },
  { "name": "Talaghattapura", "lat": 12.8664, "lng": 77.5315, "area": 19 },
  { "name": "Thirumenahalli", "lat": 13.0927, "lng": 77.6284, "area": 7 },
  { "name": "Thubarahalli", "lat": 12.9585, "lng": 77.7246, "area": 27 },
  { "name": "Ullal", "lat": 12.9611, "lng": 77.4805, "area": 31 },
  { "name": "Uttarahalli", "lat": 12.9081, "lng": 77.5413, "area": 16 },
  { "name": "Vibhutipura", "lat": 12.9680, "lng": 77.6758, "area": 40 },
  { "name": "Yediyur", "lat": 12.9336, "lng": 77.5764, "area": 18 }
]
