[
  { "name": "Begur", "latitude": 12.8754, "longitude": 77.6298, "area": 137 },
  { "name": "Bellandur", "latitude": 12.9347, "longitude": 77.6640, "area": 892 },
  { "name": "Chikkabanavara", "latitude": 13.0825, "longitude": 77.5068, "area": 170 },
  { "name": "Doddabommasandra", "latitude": 13.0650, "longitude": 77.5619, "area": 124 },
  { "name": "Doddanekundi", "latitude": 12.9750, "longitude": 77.6875, "area": 130 },
  { "name": "Hebbal", "latitude": 13.0469, "longitude": 77.5858, "area": 150 },
  { "name": "Hulimavu", "latitude": 12.8716, "longitude": 77.6036, "area": 127 },
  { "name": "Jakkur", "latitude": 13.0867, "longitude": 77.6101, "area": 157 },
  { "name": "Kal", "latitude": 13.0473, "longitude": 77.6642, "area": 187 },
  { "name": "Madiwala", "latitude": 12.9069, "longitude": 77.6161, "area": 268 },
  { "name": "Maragondanahalli", "latitude": 13.0477, "longitude": 77.6841, "area": 187 },
  { "name": "Rachenahalli", "latitude": 13.0626, "longitude": 77.6134, "area": 104 },
  { "name": "Ulsoor", "latitude": 12.9825, "longitude": 77.6191, "area": 108 },
  { "name": "Varthur", "latitude": 12.9487, "longitude": 77.7392, "area": 445 },
  { "name": "Yelahanka", "latitude": 13.1108, "longitude": 77.5952, "area": 288 },
  { "name": "Yele Mallappa Shetty", "latitude": 13.0246, "longitude": 77.7274, "area": 490 },
  { "name": "Abbigere", "latitude": 13.0793, "longitude": 77.5278, "area": 47 },
  { "name": "Agara", "latitude": 12.9212, "longitude": 77.6412, "area": 97 },
  { "name": "Akshayanagara", "latitude": 12.8716, "longitude": 77.6140, "area": 6 },
  { "name": "Allalasandra", "latitude": 13.0910, "longitude": 77.5871, "area": 35 },
  { "name": "Amrutahalli", "latitude": 13.0617, "longitude": 77.5977, "area": 23 },
  { "name": "Anchepalya", "latitude": 13.0515, "longitude": 77.4793, "area": 56 },
  { "name": "Are", "latitude": 12.8831, "longitude": 77.5986, "area": 29 },
  { "name": "Attur", "latitude": 13.1114, "longitude": 77.5629, "area": 81 },
  { "name": "Avalahalli", "latitude": 12.8651, "longitude": 77.5661, "area": 21 },
  { "name": "Bagmane", "latitude": 12.9792, "longitude": 77.6554, "area": 11 },
  { "name": "Banaswadi", "latitude": 13.0128, "longitude": 77.6448, "area": 25 },
  { "name": "Benniganahalli", "latitude": 12.9974, "longitude": 77.6651, "area": 15 },
  { "name": "Byrasandra", "latitude": 12.9302, "longitude": 77.5958, "area": 14 },
  { "name": "Chele", "latitude": 13.0265, "longitude": 77.6446, "area": 25 },
  { "name": "Chinnappanahalli", "latitude": 12.9658, "longitude": 77.7068, "area": 11 },
  { "name": "Chunchanghatta", "latitude": 12.9658, "longitude": 77.7068, "area": 18 },
  { "name": "Dasarahalli", "latitude": 13.0409, "longitude": 77.5118, "area": 27 },
  { "name": "Devara", "latitude": 12.8977, "longitude": 77.5543, "area": 7 },
  { "name": "Devasandra", "latitude": 13.0049, "longitude": 77.6935, "area": 16 },
  { "name": "Doddabidarakallu", "latitude": 13.0431, "longitude": 77.4954, "area": 40 },
  { "name": "Doddakallasandra", "latitude": 12.8821, "longitude": 77.5615, "area": 21 },
  { "name": "Dore", "latitude": 12.9027, "longitude": 77.5504, "area": 28 },
  { "name": "Dubasipalya", "latitude": 12.9311, "longitude": 77.4945, "area": 22 },
  { "name": "Gangondanahalli", "latitude": 13.0179, "longitude": 77.4747, "area": 20 },
  { "name": "Garvebhavipalya", "latitude": 12.8964, "longitude": 77.6372, "area": 18 },
  { "name": "Gottigere", "latitude": 12.8530, "longitude": 77.5901, "area": 37 },
  { "name": "Halagevaderahalli", "latitude": 12.9240, "longitude": 77.5149, "area": 9 },
  { "name": "Haralur", "latitude": 12.8964, "longitude": 77.6624, "area": 27 },
  { "name": "Herohalli", "latitude": 12.9891, "longitude": 77.4896, "area": 25 },
  { "name": "Hoodi", "latitude": 12.9868, "longitude": 77.7227, "area": 15 },
  { "name": "Hormavu Agara", "latitude": 13.0355, "longitude": 77.6584, "area": 51 },
  { "name": "Hosa", "latitude": 12.8846, "longitude": 77.6649, "area": 38 },
  { "name": "Hosakerehalli", "latitude": 12.9262, "longitude": 77.5337, "area": 59 },
  { "name": "Hoskere", "latitude": 12.9259, "longitude": 77.4804, "area": 54 },
  { "name": "Iblur", "latitude": 12.9224, "longitude": 77.6668, "area": 10 },
  { "name": "Janardhana", "latitude": 12.8909, "longitude": 77.5568, "area": 7 },
  { "name": "Kacharkanahalli", "latitude": 13.0183, "longitude": 77.6263, "area": 53 },
  { "name": "Kaggadasapura", "latitude": 12.9819, "longitude": 77.6695, "area": 47 },
  { "name": "Kaikondrahalli", "latitude": 12.9133, "longitude": 77.6729, "area": 48 },
  { "name": "Kalena Agrahara", "latitude": 12.8655, "longitude": 77.5896, "area": 7 },
  { "name": "Kannuru", "latitude": 13.0999, "longitude": 77.6507, "area": 64 },
  { "name": "Kasavanahalli", "latitude": 12.9040, "longitude": 77.6665, "area": 53 },
  { "name": "Kelagina", "latitude": 12.9787, "longitude": 77.6618, "area": 12 },
  { "name": "Kempambudhi", "latitude": 12.9518, "longitude": 77.5593, "area": 36 },
  { "name": "Kengeri", "latitude": 12.9163, "longitude": 77.4874, "area": 38 },
  { "name": "Kogilu", "latitude": 13.1080, "longitude": 77.6189, "area": 73 },
  { "name": "Konasandra", "latitude": 12.8923, "longitude": 77.4834, "area": 37 },
  { "name": "Kothanur", "latitude": 12.8739, "longitude": 77.5789, "area": 18 },
  { "name": "Kowdenahalli", "latitude": 13.0125, "longitude": 77.6850, "area": 55 },
  { "name": "K R Puram", "latitude": 13.0165, "longitude": 77.6984, "area": 45 },
  { "name": "Kundalahalli", "latitude": 12.9693, "longitude": 77.7203, "area": 30 },
  { "name": "Lalbagh", "latitude": 12.9460, "longitude": 77.5826, "area": 40 },
  { "name": "Lakkasandra", "latitude": 12.9439, "longitude": 77.6007, "area": 40 },
  { "name": "Malathalli", "latitude": 12.9656, "longitude": 77.4946, "area": 72 },
  { "name": "Mathikere", "latitude": 13.0354, "longitude": 77.5508, "area": 80 },
  { "name": "Mahadevpura", "latitude": 12.9873, "longitude": 77.6921, "area": 26 },
  { "name": "Mestripalya", "latitude": 12.9322, "longitude": 77.6259, "area": 9 },
  { "name": "Munnekolala", "latitude": 12.9608, "longitude": 77.7080, "area": 15 },
  { "name": "Mylasandra", "latitude": 12.9082, "longitude": 77.4926, "area": 12 },
  { "name": "Nagavara", "latitude": 13.0449, "longitude": 77.6080, "area": 75 },
  { "name": "Narasappanahalli", "latitude": 13.0216, "longitude": 77.4950, "area": 37 },
  { "name": "Nayandahalli", "latitude": 12.9400, "longitude": 77.5213, "area": 15 },
  { "name": "Pattandur Agrahara", "latitude": 12.9760, "longitude": 77.7452, "area": 12 },
  { "name": "Puttenahalli Lake, Yelahanka", "latitude": 13.1113, "longitude": 77.5764, "area": 34 },
  { "name": "Puttenahalli Lake, J P Nagar", "latitude": 12.8903, "longitude": 77.5871, "area": 13 },
  { "name": "Sadaramangala", "latitude": 12.9995, "longitude": 77.7285, "area": 52 },
  { "name": "Sankey tank", "latitude": 13.0096, "longitude": 77.5738, "area": 40 },
  { "name": "Sarakki", "latitude": 12.8993, "longitude": 77.5792, "area": 82 },
  { "name": "Saul", "latitude": 12.9179, "longitude": 77.6796, "area": 61 },
  { "name": "Seegehalli", "latitude": 13.0172, "longitude": 77.7128, "area": 31 },
  { "name": "Seetharampalya", "latitude": 12.9819, "longitude": 77.7129, "area": 23 },
  { "name": "Singapura", "latitude": 13.0825, "longitude": 77.5351, "area": 66 },
  { "name": "Subramanyapura", "latitude": 12.8962, "longitude": 77.5427, "area": 18 },
  { "name": "Sunkalpalya", "latitude": 12.9064, "longitude": 77.4960, "area": 15 },
  { "name": "Talaghattapura", "latitude": 12.8664, "longitude": 77.5315, "area": 19 },
  { "name": "Thirumenahalli", "latitude": 13.0927, "longitude": 77.6284, "area": 7 },
  { "name": "Thubarahalli", "latitude": 12.9585, "longitude": 77.7246, "area": 27 },
  { "name": "Ullal", "latitude": 12.9611, "longitude": 77.4805, "area": 31 },
  { "name": "Uttarahalli", "latitude": 12.9081, "longitude": 77.5413, "area": 16 },
  { "name": "Vibhutipura", "latitude": 12.9680, "longitude": 77.6758, "area": 40 },
  { "name": "Yediyur", "latitude": 12.9336, "longitude": 77.5764, "area": 18 }
]
